Data Source,TIMEFRAME (DD/MM/YYYY),Volumetric Flow Meter 1,Volumetric Flow Meter 2,Pump Speed (RPM),Pump Torque ,Ambient Temperature,Horse Power,Pump Efficiency,PUMP FAILURE (1 or 0)
Raw,9/12/2014 0:00,41.3,41.16,98,207,54,3.86,74.84,0
Raw,9/12/2014 0:01,42.4,41.39,92,212,46,3.71,75.25,0
Raw,9/12/2014 0:02,41.43,41.15,80,207,55,3.15,74.82,0
Raw,9/12/2014 0:03,42.21,40.93,83,190,49,3.00,74.42,0
Raw,9/12/2014 0:04,40.51,43.32,90,195,50,3.34,78.76,0
Raw,9/12/2014 0:05,42.14,40.01,92,220,47,3.85,72.75,0
Raw,9/12/2014 0:06,43.05,41.09,86,211,51,3.46,74.71,0
Raw,9/12/2014 0:07,40.82,41.44,98,196,54,3.66,75.35,0
Raw,9/12/2014 0:08,40.84,41.97,91,186,53,3.22,76.31,0
Raw,9/12/2014 0:09,40.25,41.16,83,189,45,2.99,74.84,0
Raw,9/12/2014 0:10,40.13,41.66,85,205,51,3.32,75.75,0
Raw,9/12/2014 0:11,43.37,42.77,82,204,54,3.19,77.76,0
Raw,9/12/2014 0:12,41.24,42.77,81,216,45,3.33,77.76,0
Raw,9/12/2014 0:13,43.4,43.3,88,188,49,3.15,78.73,0
Raw,9/12/2014 0:14,42.75,42.21,90,198,52,3.39,76.75,0
Raw,9/12/2014 0:15,40.17,42.37,88,184,45,3.08,77.04,0
Raw,9/12/2014 0:16,41.55,43.63,90,200,47,3.43,79.33,0
Raw,9/12/2014 0:17,42.02,41.58,90,193,55,3.31,75.60,0
Raw,9/12/2014 0:18,41.17,40.52,87,182,52,3.01,73.67,0
Raw,9/12/2014 0:19,41.84,42,83,193,51,3.05,76.36,0
Raw,9/12/2014 0:20,43.01,41.8,91,220,45,3.81,76.00,0
Raw,9/12/2014 0:21,41.19,42.71,93,215,48,3.81,77.65,0
Raw,9/12/2014 0:22,43.48,40.75,88,219,47,3.67,74.09,0
Raw,9/12/2014 0:23,42.74,41.16,82,206,46,3.22,74.84,0
Raw,9/12/2014 0:24,42,43.44,97,217,48,4.01,78.98,0
Raw,9/12/2014 0:25,41.3,40.45,83,192,51,3.03,73.55,0
Raw,9/12/2014 0:26,43.56,42.75,98,205,48,3.83,77.73,0
Raw,9/12/2014 0:27,41.16,41.58,82,214,52,3.34,75.60,0
Raw,9/12/2014 0:28,42.61,42.31,97,213,46,3.93,76.93,0
Raw,9/12/2014 0:29,41.17,41.08,92,211,55,3.70,74.69,0
Raw,9/12/2014 0:30,40.42,40.02,97,197,53,3.64,72.76,0
Raw,9/12/2014 0:31,41.45,40.64,81,218,45,3.36,73.89,0
Raw,9/12/2014 0:32,42.36,43.07,97,191,46,3.53,78.31,0
Raw,9/12/2014 0:33,42.76,42.19,95,185,46,3.35,76.71,0
Raw,9/12/2014 0:34,42.01,43.55,81,191,53,2.95,79.18,0
Raw,9/12/2014 0:35,40.05,42.98,90,194,50,3.32,78.15,0
Raw,9/12/2014 0:36,42.67,43.15,87,212,51,3.51,78.45,0
Raw,9/12/2014 0:37,42.5,40.18,84,190,46,3.04,73.05,0
Raw,9/12/2014 0:38,42.11,42.41,81,183,45,2.82,77.11,0
Raw,9/12/2014 0:39,42.59,41.43,81,189,52,2.91,75.33,0
Raw,9/12/2014 0:40,43.19,42.06,89,219,46,3.71,76.47,0
Raw,9/12/2014 0:41,43.98,43.48,81,199,55,3.07,79.05,0
Raw,9/12/2014 0:42,41.33,40.32,93,200,53,3.54,73.31,0
Raw,9/12/2014 0:43,42.79,40.76,93,209,48,3.70,74.11,0
Raw,9/12/2014 0:44,42.28,41.67,94,199,49,3.56,75.76,0
Raw,9/12/2014 0:45,40.43,41.01,91,217,54,3.76,74.56,0
Raw,9/12/2014 0:46,40.53,43.97,96,188,53,3.44,79.95,0
Raw,9/12/2014 0:47,42.81,43.67,96,201,49,3.67,79.40,0
Raw,9/12/2014 0:48,42.78,41.39,88,198,49,3.32,75.25,0
Raw,9/12/2014 0:49,41.49,40.23,81,191,53,2.95,73.15,0
Raw,9/12/2014 0:50,40,41.2,81,184,46,2.84,74.91,0
Raw,9/12/2014 0:51,43.12,43.65,88,207,45,3.47,79.36,0
Raw,9/12/2014 0:52,42.1,40.77,86,203,52,3.32,74.13,0
Raw,9/12/2014 0:53,40.48,42.97,82,214,52,3.34,78.13,0
Raw,9/12/2014 0:54,43.25,41.69,85,190,55,3.08,75.80,0
Raw,9/12/2014 0:55,40.47,43.39,81,208,54,3.21,78.89,0
Raw,9/12/2014 0:56,42.62,43.3,98,182,55,3.40,78.73,0
Raw,9/12/2014 0:57,43.32,42.56,90,192,46,3.29,77.38,0
Raw,9/12/2014 0:58,41.63,43.23,86,193,48,3.16,78.60,0
Raw,9/12/2014 0:59,40.9,40.94,80,209,55,3.18,74.44,0
Raw,9/12/2014 1:00,43.72,40.64,93,202,48,3.58,73.89,0
Raw,9/12/2014 1:01,43.86,42.77,81,188,48,2.90,77.76,0
Raw,9/12/2014 1:02,42.3,40.23,86,203,46,3.32,73.15,0
Raw,9/12/2014 1:03,41.42,40.68,88,213,49,3.57,73.96,0
Raw,9/12/2014 1:04,40.27,41.96,100,184,52,3.50,76.29,0
Raw,9/12/2014 1:05,43.65,42.45,80,213,51,3.24,77.18,0
Raw,9/12/2014 1:06,41.36,41.38,88,186,53,3.12,75.24,0
Raw,9/12/2014 1:07,40.13,40.26,87,191,47,3.16,73.20,0
Raw,9/12/2014 1:08,42.87,43.16,95,191,49,3.45,78.47,0
Raw,9/12/2014 1:09,41.9,42.01,84,183,46,2.93,76.38,0
Raw,9/12/2014 1:10,41.1,43.58,85,212,53,3.43,79.24,0
Raw,9/12/2014 1:11,42.66,42.73,83,201,54,3.18,77.69,0
Raw,9/12/2014 1:12,41.69,41.1,85,184,46,2.98,74.73,0
Raw,9/12/2014 1:13,41.22,41.05,81,214,47,3.30,74.64,0
Raw,9/12/2014 1:14,40.19,41.11,85,218,51,3.53,74.75,0
Raw,9/12/2014 1:15,42.3,43.2,91,188,47,3.26,78.55,0
Raw,9/12/2014 1:16,41.25,40.14,82,210,55,3.28,72.98,0
Raw,9/12/2014 1:17,40.97,43.85,85,184,50,2.98,79.73,0
Raw,9/12/2014 1:18,42.64,42.73,95,211,54,3.82,77.69,0
Raw,9/12/2014 1:19,42.41,40.34,81,214,55,3.30,73.35,0
Raw,9/12/2014 1:20,42.6,43.69,92,220,53,3.85,79.44,0
Raw,9/12/2014 1:21,41.92,40.19,100,199,46,3.79,73.07,0
Raw,9/12/2014 1:22,41.81,40.89,84,193,46,3.09,74.35,0
Raw,9/12/2014 1:23,41.15,43.71,88,186,46,3.12,79.47,0
Raw,9/12/2014 1:24,43.94,43.2,97,212,52,3.92,78.55,0
Raw,9/12/2014 1:25,42.72,42.58,88,194,55,3.25,77.42,0
Raw,9/12/2014 1:26,43.35,42.98,93,192,54,3.40,78.15,0
Raw,9/12/2014 1:27,41.56,41.23,90,203,45,3.48,74.96,0
Raw,9/12/2014 1:28,43.7,40.34,97,188,48,3.47,73.35,0
Raw,9/12/2014 1:29,42.85,43.4,96,185,53,3.38,78.91,0
Raw,9/12/2014 1:30,40.64,43.66,88,199,45,3.33,79.38,0
Raw,9/12/2014 1:31,42,40.92,93,219,52,3.88,74.40,0
Raw,9/12/2014 1:32,43.39,41.6,89,217,55,3.68,75.64,0
Raw,9/12/2014 1:33,40.85,40.2,91,218,55,3.78,73.09,0
Raw,9/12/2014 1:34,41.75,42.99,95,187,47,3.38,78.16,0
Raw,9/12/2014 1:35,42.91,40.87,85,201,47,3.25,74.31,0
Raw,9/12/2014 1:36,43.07,41.37,84,197,48,3.15,75.22,0
Raw,9/12/2014 1:37,40.45,43.29,92,210,55,3.68,78.71,0
Raw,9/12/2014 1:38,41.13,40.61,93,209,48,3.70,73.84,0
Raw,9/12/2014 1:39,43.69,41.85,85,198,50,3.20,76.09,0
Raw,9/12/2014 1:40,40.27,40.44,97,213,49,3.93,73.53,0
Raw,9/12/2014 1:41,43.12,43.51,100,195,53,3.71,79.11,0
Raw,9/12/2014 1:42,41.4,41.27,94,194,48,3.47,75.04,0
Raw,9/12/2014 1:43,41.89,43.89,93,205,46,3.63,79.80,0
Raw,9/12/2014 1:44,43.9,41.13,83,216,50,3.41,74.78,0
Raw,9/12/2014 1:45,41.96,43.07,93,181,51,3.21,78.31,0
Raw,9/12/2014 1:46,42.37,42.78,96,183,54,3.35,77.78,0
Raw,9/12/2014 1:47,42.83,40.59,93,195,49,3.45,73.80,0
Raw,9/12/2014 1:48,42.02,41.52,87,190,45,3.15,75.49,0
Raw,9/12/2014 1:49,41.73,41.84,88,212,50,3.55,76.07,0
Raw,9/12/2014 1:50,40.21,43.07,97,207,50,3.82,78.31,0
Raw,9/12/2014 1:51,43.4,41.58,98,184,55,3.43,75.60,0
Raw,9/12/2014 1:52,43.77,40.25,89,218,48,3.69,73.18,0
Raw,9/12/2014 1:53,40.14,43.79,95,215,46,3.89,79.62,0
Raw,9/12/2014 1:54,43.36,40.89,84,214,49,3.42,74.35,0
Raw,9/12/2014 1:55,40.99,42.01,95,195,50,3.53,76.38,0
Raw,9/12/2014 1:56,41.01,40.77,82,218,49,3.40,74.13,0
Raw,9/12/2014 1:57,42.96,43.01,99,184,49,3.47,78.20,0
Raw,9/12/2014 1:58,41.01,41.69,95,219,45,3.96,75.80,0
Raw,9/12/2014 1:59,41.03,40.87,93,210,49,3.72,74.31,0
Raw,9/12/2014 2:00,40.35,43.2,95,203,52,3.67,78.55,0
Raw,9/12/2014 2:01,43.59,40.8,93,180,54,3.19,74.18,0
Raw,9/12/2014 2:02,43.4,43.28,82,192,48,3.00,78.69,0
Raw,9/12/2014 2:03,43.11,40.85,81,219,45,3.38,74.27,0
Raw,9/12/2014 2:04,42.69,42.49,88,185,52,3.10,77.25,0
Raw,9/12/2014 2:05,43.71,43.55,81,201,54,3.10,79.18,0
Raw,9/12/2014 2:06,41.5,40.06,89,198,46,3.36,72.84,0
Raw,9/12/2014 2:07,41.62,41.56,92,202,46,3.54,75.56,0
Raw,9/12/2014 2:08,43.88,40.61,94,193,48,3.45,73.84,0
Raw,9/12/2014 2:09,40.38,42.13,96,198,55,3.62,76.60,0
Raw,9/12/2014 2:10,40.12,40.31,84,204,49,3.26,73.29,0
Raw,9/12/2014 2:11,43.89,40.7,80,196,53,2.99,74.00,0
Raw,9/12/2014 2:12,40.61,43.71,94,213,52,3.81,79.47,0
Raw,9/12/2014 2:13,40.11,40.87,84,189,54,3.02,74.31,0
Raw,9/12/2014 2:14,42.22,43.94,97,180,46,3.32,79.89,0
Raw,9/12/2014 2:15,42.34,40.07,90,212,45,3.63,72.85,0
Raw,9/12/2014 2:16,41.34,42.49,91,204,45,3.53,77.25,0
Raw,9/12/2014 2:17,41.29,41.49,82,219,46,3.42,75.44,0
Raw,9/12/2014 2:18,41.96,41.16,92,195,55,3.42,74.84,0
Raw,9/12/2014 2:19,41.38,43.18,98,195,51,3.64,78.51,0
Raw,9/12/2014 2:20,42.83,42.56,86,210,54,3.44,77.38,0
Raw,9/12/2014 2:21,43.83,43.97,99,180,48,3.39,79.95,0
Raw,9/12/2014 2:22,41.47,40.48,93,181,55,3.21,73.60,0
Raw,9/12/2014 2:23,41.17,43.3,93,218,49,3.86,78.73,0
Raw,9/12/2014 2:24,40.98,42.15,89,181,51,3.07,76.64,0
Raw,9/12/2014 2:25,41.3,40.73,89,217,49,3.68,74.05,0
Raw,9/12/2014 2:26,41.39,41.16,83,185,48,2.92,74.84,0
Raw,9/12/2014 2:27,42.84,40.99,92,196,50,3.43,74.53,0
Raw,9/12/2014 2:28,43.16,41.62,81,212,51,3.27,75.67,0
Raw,9/12/2014 2:29,42.44,40.77,94,180,45,3.22,74.13,0
Raw,9/12/2014 2:30,42.59,40.29,85,207,49,3.35,73.25,0
Raw,9/12/2014 2:31,40.87,42.45,90,199,45,3.41,77.18,0
Raw,9/12/2014 2:32,41.58,43.49,85,198,46,3.20,79.07,0
Raw,9/12/2014 2:33,40.32,40.75,87,185,45,3.06,74.09,0
Raw,9/12/2014 2:34,41.53,41.02,85,205,53,3.32,74.58,0
Raw,9/12/2014 2:35,40.49,41.93,91,213,52,3.69,76.24,0
Raw,9/12/2014 2:36,42.11,41.74,90,208,47,3.56,75.89,0
Raw,9/12/2014 2:37,41.15,43.66,100,215,45,4.09,79.38,0
Raw,9/12/2014 2:38,44,41.21,82,203,48,3.17,74.93,0
Raw,9/12/2014 2:39,42.33,42.7,96,195,48,3.56,77.64,0
Raw,9/12/2014 2:40,40.13,40.83,97,212,45,3.92,74.24,0
Raw,9/12/2014 2:41,40.35,41.7,83,219,46,3.46,75.82,0
Raw,9/12/2014 2:42,42.85,42.9,87,216,53,3.58,78.00,0
Raw,9/12/2014 2:43,43.78,41.59,96,197,45,3.60,75.62,0
Raw,9/12/2014 2:44,42.51,42.83,86,212,50,3.47,77.87,0
Raw,9/12/2014 2:45,40,42.95,85,202,46,3.27,78.09,0
Raw,9/12/2014 2:46,40.81,40.89,89,194,47,3.29,74.35,0
Raw,9/12/2014 2:47,41.31,42.51,80,191,50,2.91,77.29,0
Raw,9/12/2014 2:48,40.78,42.2,94,214,52,3.83,76.73,0
Raw,9/12/2014 2:49,42.4,40.49,89,210,45,3.56,73.62,0
Raw,9/12/2014 2:50,42.83,40.76,86,187,47,3.06,74.11,0
Raw,9/12/2014 2:51,42.96,40.13,96,215,49,3.93,72.96,0
Raw,9/12/2014 2:52,40.36,43.44,80,194,47,2.96,78.98,0
Raw,9/12/2014 2:53,42.42,43,82,185,55,2.89,78.18,0
Raw,9/12/2014 2:54,40.56,41.72,96,205,53,3.75,75.85,0
Raw,9/12/2014 2:55,43.74,42.94,85,201,47,3.25,78.07,0
Raw,9/12/2014 2:56,41.79,40.3,86,219,52,3.59,73.27,0
Raw,9/12/2014 2:57,43.9,42.57,89,197,54,3.34,77.40,0
Raw,9/12/2014 2:58,41.67,43.35,83,205,45,3.24,78.82,0
Raw,9/12/2014 2:59,40.33,43.91,92,180,47,3.15,79.84,0
Raw,9/12/2014 3:00,42.29,43.43,92,208,49,3.64,78.96,0
Raw,9/12/2014 3:01,41.62,40.19,89,201,51,3.41,73.07,0
Raw,9/12/2014 3:02,40.44,43,99,214,46,4.03,78.18,0
Raw,9/12/2014 3:03,43.22,42.66,98,199,47,3.71,77.56,0
Raw,9/12/2014 3:04,42.9,43.01,90,201,47,3.44,78.20,0
Raw,9/12/2014 3:05,40.71,42.59,84,209,54,3.34,77.44,0
Raw,9/12/2014 3:06,41.07,41.32,99,200,46,3.77,75.13,0
Raw,9/12/2014 3:07,42.58,42.84,98,185,52,3.45,77.89,0
Raw,9/12/2014 3:08,40.27,42.97,96,193,54,3.53,78.13,0
Raw,9/12/2014 3:09,43.35,40.46,90,212,46,3.63,73.56,0
Raw,9/12/2014 3:10,43.85,43.47,90,206,53,3.53,79.04,0
Raw,9/12/2014 3:11,44,42.72,80,217,52,3.31,77.67,0
Raw,9/12/2014 3:12,41.72,41.16,88,198,55,3.32,74.84,0
Raw,9/12/2014 3:13,43.59,42.4,96,194,55,3.55,77.09,0
Raw,9/12/2014 3:14,42.16,41.26,90,194,48,3.32,75.02,0
Raw,9/12/2014 3:15,42.92,42.75,93,180,50,3.19,77.73,0
Raw,9/12/2014 3:16,40.98,43.18,81,207,51,3.19,78.51,0
Raw,9/12/2014 3:17,41.01,40.81,95,217,50,3.93,74.20,0
Raw,9/12/2014 3:18,40.04,41.66,91,186,52,3.22,75.75,0
Raw,9/12/2014 3:19,43.95,43.06,91,181,50,3.14,78.29,0
Raw,9/12/2014 3:20,43.7,42.52,91,205,49,3.55,77.31,0
Raw,9/12/2014 3:21,40.92,43.3,95,218,49,3.94,78.73,0
Raw,9/12/2014 3:22,41.8,43.3,81,189,48,2.91,78.73,0
Raw,9/12/2014 3:23,41.71,40.19,97,191,45,3.53,73.07,0
Raw,9/12/2014 3:24,43.04,41.93,96,208,51,3.80,76.24,0
Raw,9/12/2014 3:25,41.08,42.32,90,203,47,3.48,76.95,0
Raw,9/12/2014 3:26,43.93,40.04,89,181,54,3.07,72.80,0
Raw,9/12/2014 3:27,40.93,40.32,85,211,46,3.41,73.31,0
Raw,9/12/2014 3:28,41.9,40.62,93,213,45,3.77,73.85,0
Raw,9/12/2014 3:29,42.65,43.31,85,195,50,3.16,78.75,0
Raw,9/12/2014 3:30,40.06,42.41,80,218,54,3.32,77.11,0
Raw,9/12/2014 3:31,41.59,41.29,84,214,54,3.42,75.07,0
Raw,9/12/2014 3:32,40.14,40.39,80,189,47,2.88,73.44,0
Raw,9/12/2014 3:33,43.69,43.6,88,190,50,3.18,79.27,0
Raw,9/12/2014 3:34,41.73,43.18,83,180,55,2.84,78.51,0
Raw,9/12/2014 3:35,43.49,40.16,81,217,48,3.35,73.02,0
Raw,9/12/2014 3:36,41.74,40.67,82,212,49,3.31,73.95,0
Raw,9/12/2014 3:37,41.83,42.73,83,208,48,3.29,77.69,0
Raw,9/12/2014 3:38,40.75,40.54,85,207,48,3.35,73.71,0
Raw,9/12/2014 3:39,42.33,40.18,100,180,47,3.43,73.05,0
Raw,9/12/2014 3:40,42.45,41.96,94,219,53,3.92,76.29,0
Raw,9/12/2014 3:41,42.43,41.12,80,212,47,3.23,74.76,0
Raw,9/12/2014 3:42,43.08,42.53,90,184,50,3.15,77.33,0
Raw,9/12/2014 3:43,40.37,42.61,82,181,47,2.83,77.47,0
Raw,9/12/2014 3:44,43.14,40.27,86,213,45,3.49,73.22,0
Raw,9/12/2014 3:45,41.21,43.3,93,180,51,3.19,78.73,0
Raw,9/12/2014 3:46,42.53,43.6,95,190,49,3.44,79.27,0
Raw,9/12/2014 3:47,43.12,41.51,80,180,46,2.74,75.47,0
Raw,9/12/2014 3:48,42.9,41.92,98,212,55,3.96,76.22,0
Raw,9/12/2014 3:49,43.89,40.07,86,181,46,2.96,72.85,0
Raw,9/12/2014 3:50,41.81,43.64,95,203,51,3.67,79.35,0
Raw,9/12/2014 3:51,42.4,41.26,94,212,55,3.79,75.02,0
Raw,9/12/2014 3:52,43.88,42.19,93,219,53,3.88,76.71,0
Raw,9/12/2014 3:53,41.54,40.01,96,196,47,3.58,72.75,0
Raw,9/12/2014 3:54,43.17,42.61,92,186,49,3.26,77.47,0
Raw,9/12/2014 3:55,43.1,42.32,84,199,46,3.18,76.95,0
Raw,9/12/2014 3:56,42.52,40.04,84,218,45,3.49,72.80,0
Raw,9/12/2014 3:57,41.95,40.34,95,193,46,3.49,73.35,0
Raw,9/12/2014 3:58,43.91,40.94,98,193,51,3.60,74.44,0
Raw,9/12/2014 3:59,41.45,43.5,87,202,47,3.35,79.09,0
Raw,9/12/2014 4:00,41.51,41.63,84,183,45,2.93,75.69,0
Raw,9/12/2014 4:01,41.08,40.58,88,197,55,3.30,73.78,0
Raw,9/12/2014 4:02,43.58,40.17,94,220,45,3.94,73.04,0
Raw,9/12/2014 4:03,42.65,44.37,97,224,55,4.14,77.55,0
Raw,9/12/2014 4:04,43.58,44.42,99,232,54,4.37,79.24,0
Raw,9/12/2014 4:05,42.07,44.35,104,222,52,4.40,76.49,0
Raw,9/12/2014 4:06,42.28,44.39,102,236,54,4.58,76.87,0
Raw,9/12/2014 4:07,43.88,42.29,99,240,53,4.52,79.78,0
Raw,9/12/2014 4:08,44.61,42.28,103,240,54,4.71,81.11,0
Raw,9/12/2014 4:09,43.14,44.75,97,240,53,4.43,78.44,0
Raw,9/12/2014 4:10,42.04,42.12,98,232,53,4.33,76.44,0
Raw,9/12/2014 4:11,42.85,42.82,98,233,52,4.35,77.91,0
Raw,9/12/2014 4:12,43.49,43.05,97,227,52,4.19,79.07,0
Raw,9/12/2014 4:13,44.54,43.41,100,238,54,4.53,80.98,0
Raw,9/12/2014 4:14,43.46,44.16,100,222,55,4.23,79.02,0
Raw,9/12/2014 4:15,42.91,42.94,100,233,55,4.44,78.02,0
Raw,9/12/2014 4:16,42.65,42.02,98,236,55,4.40,77.55,0
Raw,9/12/2014 4:17,44.69,42.07,98,223,53,4.16,81.25,0
Raw,9/12/2014 4:18,42.22,43.72,102,233,53,4.53,76.76,0
Raw,9/12/2014 4:19,43.75,44.51,99,227,55,4.28,79.55,0
Raw,9/12/2014 4:20,43.97,42.02,98,236,55,4.40,79.95,0
Raw,9/12/2014 4:21,42.27,45,102,235,53,4.56,76.85,0
Raw,9/12/2014 4:22,43.68,44.81,96,224,55,4.09,79.42,0
Raw,9/12/2014 4:23,42.02,43.48,102,220,54,4.27,76.40,0
Raw,9/12/2014 4:24,43.44,43.82,95,235,52,4.25,78.98,0
Raw,9/12/2014 4:25,42.64,42.38,103,221,54,4.33,77.53,0
Raw,9/12/2014 4:26,42.13,43.05,100,221,54,4.21,76.60,0
Raw,9/12/2014 4:27,43.02,44.53,102,238,53,4.62,78.22,0
Raw,9/12/2014 4:28,44.66,42.45,100,230,55,4.38,81.20,0
Raw,9/12/2014 4:29,42.69,44.7,95,227,53,4.11,77.62,0
Raw,9/12/2014 4:30,42.94,43.45,102,221,53,4.29,78.07,0
Raw,9/12/2014 4:31,43.31,42.27,95,239,54,4.32,78.75,0
Raw,9/12/2014 4:32,43.37,42.3,104,238,52,4.71,78.85,0
Raw,9/12/2014 4:33,44.29,44.22,105,230,53,4.60,80.53,0
Raw,9/12/2014 4:34,44.88,44.8,105,226,55,4.52,81.60,0
Raw,9/12/2014 4:35,44.07,42.2,98,221,53,4.12,80.13,0
Raw,9/12/2014 4:36,44.87,43.59,96,222,55,4.06,81.58,0
Raw,9/12/2014 4:37,43.4,44.79,96,231,55,4.22,78.91,0
Raw,9/12/2014 4:38,43.48,43.5,98,240,52,4.48,79.05,0
Raw,9/12/2014 4:39,44.69,42.84,96,230,54,4.20,81.25,0
Raw,9/12/2014 4:40,43.84,44.94,100,223,52,4.25,79.71,0
Raw,9/12/2014 4:41,42.71,42.05,101,221,54,4.25,77.65,0
Raw,9/12/2014 4:42,43.62,44.46,97,222,53,4.10,79.31,0
Raw,9/12/2014 4:43,42.57,42.1,99,233,54,4.39,77.40,0
Raw,9/12/2014 4:44,42.2,43.21,102,222,52,4.31,76.73,0
Raw,9/12/2014 4:45,43.25,42.32,95,235,54,4.25,78.64,0
Raw,9/12/2014 4:46,42.09,40.56,97,233,52,4.30,76.53,0
Raw,9/12/2014 4:47,43.72,40.17,89,199,50,3.37,73.04,0
Raw,9/12/2014 4:48,41.22,41.57,89,199,49,3.37,75.58,0
Raw,9/12/2014 4:49,41.99,41.01,83,207,55,3.27,74.56,0
Raw,9/12/2014 4:50,43.42,41.6,88,220,50,3.69,75.64,0
Raw,9/12/2014 4:51,40.89,40.73,90,191,54,3.27,74.05,0
Raw,9/12/2014 4:52,42.75,42.84,97,186,53,3.44,77.89,0
Raw,9/12/2014 4:53,40.01,41,84,215,54,3.44,74.55,0
Raw,9/12/2014 4:54,41.7,40.08,88,200,55,3.35,72.87,0
Raw,9/12/2014 4:55,43.77,41.67,97,212,47,3.92,75.76,0
Raw,9/12/2014 4:56,41.56,40.13,89,220,55,3.73,72.96,0
Raw,9/12/2014 4:57,43.74,40.46,84,211,51,3.37,73.56,0
Raw,9/12/2014 4:58,42.59,40.46,85,203,46,3.29,73.56,0
Raw,9/12/2014 4:59,41.8,40.13,91,203,46,3.52,72.96,0
Raw,9/12/2014 5:00,42.45,40.68,85,200,45,3.24,73.96,0
Raw,9/12/2014 5:01,44,42.81,95,210,47,3.80,77.84,0
Raw,9/12/2014 5:02,40.14,41.35,91,180,53,3.12,75.18,0
Raw,9/12/2014 5:03,43.35,41.65,82,220,51,3.43,75.73,0
Raw,9/12/2014 5:04,41.35,43.71,86,211,54,3.46,79.47,0
Raw,9/12/2014 5:05,42.63,44,91,204,53,3.53,80.00,0
Raw,9/12/2014 5:06,42.9,42.98,87,211,53,3.50,78.15,0
Raw,9/12/2014 5:07,42.7,40.39,88,217,47,3.64,73.44,0
Raw,9/12/2014 5:08,42.98,41.74,100,182,54,3.47,75.89,0
Raw,9/12/2014 5:09,41.91,40.06,90,206,52,3.53,72.84,0
Raw,9/12/2014 5:10,40.49,41.93,91,218,50,3.78,76.24,0
Raw,9/12/2014 5:11,40.96,40.68,89,180,48,3.05,73.96,0
Raw,9/12/2014 5:12,41.91,43.35,94,182,51,3.26,78.82,0
Raw,9/12/2014 5:13,42.87,40.2,92,214,55,3.75,73.09,0
Raw,9/12/2014 5:14,40.52,40.22,89,213,53,3.61,73.13,0
Raw,9/12/2014 5:15,41.91,41.64,97,216,50,3.99,75.71,0
Raw,9/12/2014 5:16,43.8,41.59,80,192,48,2.92,75.62,0
Raw,9/12/2014 5:17,40.65,40.43,97,217,55,4.01,73.51,0
Raw,9/12/2014 5:18,43.44,41.85,96,192,46,3.51,76.09,0
Raw,9/12/2014 5:19,41.56,40.7,84,219,52,3.50,74.00,0
Raw,9/12/2014 5:20,43.17,41.98,86,210,47,3.44,76.33,0
Raw,9/12/2014 5:21,42.12,43.52,88,187,52,3.13,79.13,0
Raw,9/12/2014 5:22,40.65,43.47,97,193,52,3.56,79.04,0
Raw,9/12/2014 5:23,40.82,40.74,94,198,52,3.54,74.07,0
Raw,9/12/2014 5:24,43.39,41.08,95,212,46,3.83,74.69,0
Raw,9/12/2014 5:25,40.03,43.55,89,182,54,3.08,79.18,0
Raw,9/12/2014 5:26,40.41,41.5,89,186,53,3.15,75.45,0
Raw,9/12/2014 5:27,43.78,40.2,90,190,54,3.26,73.09,0
Raw,9/12/2014 5:28,40.31,43.58,90,193,52,3.31,79.24,0
Raw,9/12/2014 5:29,41.81,43.87,100,209,50,3.98,79.76,0
Raw,9/12/2014 5:30,43.24,40.47,98,211,55,3.94,73.58,0
Raw,9/12/2014 5:31,42.02,40.66,85,182,47,2.95,73.93,0
Raw,9/12/2014 5:32,40.25,40.56,81,196,51,3.02,73.75,0
Raw,9/12/2014 5:33,40.74,43.8,91,183,55,3.17,79.64,0
Raw,9/12/2014 5:34,42.22,41.8,98,187,55,3.49,76.00,0
Raw,9/12/2014 5:35,42.15,43.71,89,180,55,3.05,79.47,0
Raw,9/12/2014 5:36,41.67,43.31,85,190,46,3.08,78.75,0
Raw,9/12/2014 5:37,41.98,40.06,94,185,50,3.31,72.84,0
Raw,9/12/2014 5:38,40.97,43.22,99,206,54,3.88,78.58,0
Raw,9/12/2014 5:39,42.96,42.85,98,183,54,3.41,77.91,0
Raw,9/12/2014 5:40,43.43,41.99,94,194,45,3.47,76.35,0
Raw,9/12/2014 5:41,42.6,40.95,99,181,48,3.41,74.45,0
Raw,9/12/2014 5:42,40.44,41.49,87,192,55,3.18,75.44,0
Raw,9/12/2014 5:43,43.48,40.83,82,185,47,2.89,74.24,0
Raw,9/12/2014 5:44,41.22,43.8,93,183,46,3.24,79.64,0
Raw,9/12/2014 5:45,43.2,40.72,99,218,55,4.11,74.04,0
Raw,9/12/2014 5:46,43.31,40.05,92,189,51,3.31,72.82,0
Raw,9/12/2014 5:47,42.81,41.35,96,201,45,3.67,75.18,0
Raw,9/12/2014 5:48,40.42,40.14,96,186,52,3.40,72.98,0
Raw,9/12/2014 5:49,41.53,41.93,83,219,45,3.46,76.24,0
Raw,9/12/2014 5:50,42.55,43.54,93,198,51,3.51,79.16,0
Raw,9/12/2014 5:51,43.54,42.83,80,190,52,2.89,77.87,0
Raw,9/12/2014 5:52,43.83,42.76,84,213,53,3.41,77.75,0
Raw,9/12/2014 5:53,40.47,42.96,100,206,46,3.92,78.11,0
Raw,9/12/2014 5:54,42.68,41.49,87,218,48,3.61,75.44,0
Raw,9/12/2014 5:55,43.86,40.34,83,193,47,3.05,73.35,0
Raw,9/12/2014 5:56,41.99,41.96,84,219,45,3.50,76.29,0
Raw,9/12/2014 5:57,41.53,42.56,80,217,47,3.31,77.38,0
Raw,9/12/2014 5:58,41.06,42.81,85,218,45,3.53,77.84,0
Raw,9/12/2014 5:59,42.5,43.71,99,211,45,3.98,79.47,0
Raw,9/12/2014 6:00,43.39,40.75,98,195,49,3.64,74.09,0
Raw,9/12/2014 6:01,40.21,41.87,84,205,47,3.28,76.13,0
Raw,9/12/2014 6:02,41.79,40.12,87,195,51,3.23,72.95,0
Raw,9/12/2014 6:03,40.88,41,80,192,50,2.92,74.55,0
Raw,9/12/2014 6:04,40.27,42.99,91,188,54,3.26,78.16,0
Raw,9/12/2014 6:05,40.26,42.19,100,185,49,3.52,76.71,0
Raw,9/12/2014 6:06,43.22,41.27,96,211,45,3.86,75.04,0
Raw,9/12/2014 6:07,42,43.93,98,185,55,3.45,79.87,0
Raw,9/12/2014 6:08,43.18,41.27,85,202,54,3.27,75.04,0
Raw,9/12/2014 6:09,43.41,43.8,99,208,47,3.92,79.64,0
Raw,9/12/2014 6:10,40.66,42.34,94,208,54,3.72,76.98,0
Raw,9/12/2014 6:11,43.97,43.03,99,199,52,3.75,78.24,0
Raw,9/12/2014 6:12,40.27,43.61,92,217,47,3.80,79.29,0
Raw,9/12/2014 6:13,43.58,42.91,89,183,52,3.10,78.02,0
Raw,9/12/2014 6:14,43.51,42.35,93,201,46,3.56,77.00,0
Raw,9/12/2014 6:15,41.19,41.02,90,183,52,3.14,74.58,0
Raw,9/12/2014 6:16,40.28,43.01,85,205,50,3.32,78.20,0
Raw,9/12/2014 6:17,43.99,41.87,80,180,50,2.74,76.13,0
Raw,9/12/2014 6:18,43.5,42.58,87,180,47,2.98,77.42,0
Raw,9/12/2014 6:19,42.13,41.11,86,189,50,3.09,74.75,0
Raw,9/12/2014 6:20,43.47,42.81,99,214,45,4.03,77.84,0
Raw,9/12/2014 6:21,42.41,41.48,97,202,47,3.73,75.42,0
Raw,9/12/2014 6:22,43.21,42.15,98,184,51,3.43,76.64,0
Raw,9/12/2014 6:23,41.58,43.29,95,199,48,3.60,78.71,0
Raw,9/12/2014 6:24,40.6,42.34,84,185,50,2.96,76.98,0
Raw,9/12/2014 6:25,41.79,41.28,83,214,48,3.38,75.05,0
Raw,9/12/2014 6:26,42.13,42.58,89,217,46,3.68,77.42,0
Raw,9/12/2014 6:27,43.78,40.57,82,192,53,3.00,73.76,0
Raw,9/12/2014 6:28,41.24,40.83,81,188,55,2.90,74.24,0
Raw,9/12/2014 6:29,41.18,40.37,90,218,53,3.74,73.40,0
Raw,9/12/2014 6:30,43.21,42.33,89,195,51,3.30,76.96,0
Raw,9/12/2014 6:31,43.15,40.09,80,218,52,3.32,72.89,0
Raw,9/12/2014 6:32,43.35,40.24,80,184,53,2.80,73.16,0
Raw,9/12/2014 6:33,40.39,40.87,83,203,46,3.21,74.31,0
Raw,9/12/2014 6:34,41.48,43.34,82,183,45,2.86,78.80,0
Raw,9/12/2014 6:35,40.09,40.16,89,197,48,3.34,73.02,0
Raw,9/12/2014 6:36,42.64,43.44,100,182,48,3.47,78.98,0
Raw,9/12/2014 6:37,41.38,41.58,95,215,50,3.89,75.60,0
Raw,9/12/2014 6:38,40.83,42.52,94,208,45,3.72,77.31,0
Raw,9/12/2014 6:39,42.74,41.88,100,220,50,4.19,76.15,0
Raw,9/12/2014 6:40,41.5,41.56,89,199,45,3.37,75.56,0
Raw,9/12/2014 6:41,43.42,41.08,88,195,46,3.27,74.69,0
Raw,9/12/2014 6:42,42.64,42.8,87,220,50,3.64,77.82,0
Raw,9/12/2014 6:43,42.25,40.97,92,180,53,3.15,74.49,0
Raw,9/12/2014 6:44,43.67,40.87,100,218,45,4.15,74.31,0
Raw,9/12/2014 6:45,42.59,41.86,80,214,45,3.26,76.11,0
Raw,9/12/2014 6:46,41,40.17,80,196,50,2.99,73.04,0
Raw,9/12/2014 6:47,41.33,42.82,81,213,51,3.29,77.85,0
Raw,9/12/2014 6:48,41.02,40.44,86,197,54,3.23,73.53,0
Raw,9/12/2014 6:49,42.94,43.35,94,193,48,3.45,78.82,0
Raw,9/12/2014 6:50,41.8,41.54,90,209,55,3.58,75.53,0
Raw,9/12/2014 6:51,40.47,42.23,98,202,45,3.77,76.78,0
Raw,9/12/2014 6:52,41.28,41.4,81,220,46,3.39,75.27,0
Raw,9/12/2014 6:53,40.68,42.64,86,188,55,3.08,77.53,0
Raw,9/12/2014 6:54,42.27,43.4,99,220,46,4.15,78.91,0
Raw,9/12/2014 6:55,42.58,43.18,86,217,47,3.55,78.51,0
Raw,9/12/2014 6:56,41.44,41.17,80,213,48,3.24,74.85,0
Raw,9/12/2014 6:57,43.97,40.36,81,209,55,3.22,73.38,0
Raw,9/12/2014 6:58,43.23,41.44,84,211,50,3.37,75.35,0
Raw,9/12/2014 6:59,41.87,42.4,98,202,47,3.77,77.09,0
Raw,9/12/2014 7:00,40.78,40.37,80,193,46,2.94,73.40,0
Raw,9/12/2014 7:01,42.37,41,81,217,47,3.35,74.55,0
Raw,9/12/2014 7:02,42.62,42.22,100,187,46,3.56,76.76,0
Raw,9/12/2014 7:03,41.49,42.6,100,186,47,3.54,77.45,0
Raw,9/12/2014 7:04,41,41.9,100,196,55,3.73,76.18,0
Raw,9/12/2014 7:05,43.08,42.29,96,200,54,3.66,76.89,0
Raw,9/12/2014 7:06,42.06,40.41,94,216,51,3.87,73.47,0
Raw,9/12/2014 7:07,41.78,43.01,87,216,47,3.58,78.20,0
Raw,9/12/2014 7:08,40.84,43.79,98,204,46,3.81,79.62,0
Raw,9/12/2014 7:09,40.34,40.79,83,182,55,2.88,74.16,0
Raw,9/12/2014 7:10,40.69,43.8,88,203,45,3.40,79.64,0
Raw,9/12/2014 7:11,41.2,40.49,86,192,53,3.14,73.62,0
Raw,9/12/2014 7:12,40.2,41.54,87,201,46,3.33,75.53,0
Raw,9/12/2014 7:13,42.96,42.77,95,189,47,3.42,77.76,0
Raw,9/12/2014 7:14,40.05,43.83,84,199,50,3.18,79.69,0
Raw,9/12/2014 7:15,40.04,40.88,89,220,49,3.73,74.33,0
Raw,9/12/2014 7:16,43.1,40.96,96,211,54,3.86,74.47,0
Raw,9/12/2014 7:17,43.83,40.46,96,198,55,3.62,73.56,0
Raw,9/12/2014 7:18,41.43,41.48,95,215,46,3.89,75.42,0
Raw,9/12/2014 7:19,43.77,42.76,88,200,53,3.35,77.75,0
Raw,9/12/2014 7:20,42.31,41.6,90,196,46,3.36,75.64,0
Raw,9/12/2014 7:21,40.41,42.21,81,205,49,3.16,76.75,0
Raw,9/12/2014 7:22,42.53,43.4,92,217,50,3.80,78.91,0
Raw,9/12/2014 7:23,43.44,41.94,90,189,49,3.24,76.25,0
Raw,9/12/2014 7:24,40.51,40.02,97,220,51,4.06,72.76,0
Raw,9/12/2014 7:25,43.44,42.55,85,201,47,3.25,77.36,0
Raw,9/12/2014 7:26,42.77,40.89,98,197,54,3.68,74.35,0
Raw,9/12/2014 7:27,40.4,41.28,84,182,52,2.91,75.05,0
Raw,9/12/2014 7:28,40.46,40.98,95,202,50,3.65,74.51,0
Raw,9/12/2014 7:29,43.36,43.56,80,213,53,3.24,79.20,0
Raw,9/12/2014 7:30,41.79,40.33,81,197,52,3.04,73.33,0
Raw,9/12/2014 7:31,40.1,43.68,94,213,51,3.81,79.42,0
Raw,9/12/2014 7:32,43.97,41.73,84,187,50,2.99,75.87,0
Raw,9/12/2014 7:33,42.51,40.31,85,184,48,2.98,73.29,0
Raw,9/12/2014 7:34,40.22,41.21,88,188,47,3.15,74.93,0
Raw,9/12/2014 7:35,41.59,41.62,80,192,45,2.92,75.67,0
Raw,9/12/2014 7:36,43.16,42.03,86,203,53,3.32,76.42,0
Raw,9/12/2014 7:37,40.22,43.51,94,202,53,3.62,79.11,0
Raw,9/12/2014 7:38,43.63,43.98,87,195,45,3.23,79.96,0
Raw,9/12/2014 7:39,43.18,42.85,100,199,53,3.79,77.91,0
Raw,9/12/2014 7:40,41.08,43.52,82,215,48,3.36,79.13,0
Raw,9/12/2014 7:41,40.3,43.4,80,183,53,2.79,78.91,0
Raw,9/12/2014 7:42,41.25,43.38,80,214,50,3.26,78.87,0
Raw,9/12/2014 7:43,40.87,42,99,203,48,3.83,76.36,0
Raw,9/12/2014 7:44,40.74,41.43,99,209,55,3.94,75.33,0
Raw,9/12/2014 7:45,41.45,41.14,93,194,51,3.44,74.80,0
Raw,9/12/2014 7:46,41.57,43.87,85,181,53,2.93,79.76,0
Raw,9/12/2014 7:47,43.79,41.3,80,208,55,3.17,75.09,0
Raw,9/12/2014 7:48,42.15,40.43,99,184,47,3.47,73.51,0
Raw,9/12/2014 7:49,41.59,40.54,82,215,55,3.36,73.71,0
Raw,9/12/2014 7:50,42.61,41.65,90,207,52,3.55,75.73,0
Raw,9/12/2014 7:51,40.94,40.89,91,196,53,3.40,74.35,0
Raw,9/12/2014 7:52,40.53,42.26,89,189,52,3.20,76.84,0
Raw,9/12/2014 7:53,42.73,40.44,93,193,51,3.42,73.53,0
Raw,9/12/2014 7:54,40.23,43.61,82,199,55,3.11,79.29,0
Raw,9/12/2014 7:55,43.79,42.28,80,190,53,2.89,76.87,0
Raw,9/12/2014 7:56,42.1,43,92,217,51,3.80,78.18,0
Raw,9/12/2014 7:57,41.25,42.45,83,212,54,3.35,77.18,0
Raw,9/12/2014 7:58,40.56,41.78,94,213,50,3.81,75.96,0
Raw,9/12/2014 7:59,43.31,42.97,87,205,49,3.40,78.13,0
Raw,9/12/2014 8:00,41.66,43.11,100,217,47,4.13,78.38,0
Raw,9/12/2014 8:01,41.34,43.71,80,210,50,3.20,79.47,0
Raw,9/12/2014 8:02,41.27,43.06,82,207,47,3.23,78.29,0
Raw,9/12/2014 8:03,43.49,43,82,183,54,2.86,78.18,0
Raw,9/12/2014 8:04,40.7,42.99,99,220,53,4.15,78.16,0
Raw,9/12/2014 8:05,42.94,40.23,100,183,52,3.48,73.15,0
Raw,9/12/2014 8:06,41.33,43.45,93,219,46,3.88,79.00,0
Raw,9/12/2014 8:07,40.53,40.76,98,197,46,3.68,74.11,0
Raw,9/12/2014 8:08,40.25,40.7,87,182,49,3.01,74.00,0
Raw,9/12/2014 8:09,43.95,41.31,90,200,48,3.43,75.11,0
Raw,9/12/2014 8:10,43.04,41.45,80,218,48,3.32,75.36,0
Raw,9/12/2014 8:11,42.46,40.66,82,200,52,3.12,73.93,0
Raw,9/12/2014 8:12,43.81,42.64,80,182,55,2.77,77.53,0
Raw,9/12/2014 8:13,41.9,43.82,85,216,50,3.50,79.67,0
Raw,9/12/2014 8:14,43.78,41.27,86,204,47,3.34,75.04,0
Raw,9/12/2014 8:15,42.13,40.02,97,195,52,3.60,72.76,0
Raw,9/12/2014 8:16,41.86,40.33,87,194,47,3.21,73.33,0
Raw,9/12/2014 8:17,42.6,40.07,98,194,55,3.62,72.85,0
Raw,9/12/2014 8:18,42.02,42.29,81,186,47,2.87,76.89,0
Raw,9/12/2014 8:19,40.36,43.56,86,182,50,2.98,79.20,0
Raw,9/12/2014 8:20,43.78,43.75,90,213,46,3.65,79.55,0
Raw,9/12/2014 8:21,40.66,41.07,83,194,45,3.07,74.67,0
Raw,9/12/2014 8:22,43.18,41.99,96,220,54,4.02,76.35,0
Raw,9/12/2014 8:23,43.65,41.43,98,214,51,3.99,75.33,0
Raw,9/12/2014 8:24,41.54,41.24,96,194,47,3.55,74.98,0
Raw,9/12/2014 8:25,40.43,42.78,90,187,53,3.20,77.78,0
Raw,9/12/2014 8:26,41.85,41.37,91,183,50,3.17,75.22,0
Raw,9/12/2014 8:27,43,41.57,99,199,47,3.75,75.58,0
Raw,9/12/2014 8:28,43.29,41.47,85,202,52,3.27,75.40,0
Raw,9/12/2014 8:29,43.87,41.15,93,216,46,3.82,74.82,0
Raw,9/12/2014 8:30,42.1,41.04,90,190,51,3.26,74.62,0
Raw,9/12/2014 8:31,41.02,41.46,86,200,45,3.27,75.38,0
Raw,9/12/2014 8:32,40,42.46,89,220,50,3.73,77.20,0
Raw,9/12/2014 8:33,41.41,42.76,99,196,49,3.69,77.75,0
Raw,9/12/2014 8:34,42.32,41.3,98,180,53,3.36,75.09,0
Raw,9/12/2014 8:35,43.66,40.77,96,211,50,3.86,74.13,0
Raw,9/12/2014 8:36,40.21,42.82,93,213,51,3.77,77.85,0
Raw,9/12/2014 8:37,40.51,40.72,97,184,51,3.40,74.04,0
Raw,9/12/2014 8:38,41.15,41.88,84,215,49,3.44,76.15,0
Raw,9/12/2014 8:39,41.63,43.22,93,215,55,3.81,78.58,0
Raw,9/12/2014 8:40,42.71,40.62,100,199,49,3.79,73.85,0
Raw,9/12/2014 8:41,42.46,40.6,91,193,53,3.34,73.82,0
Raw,9/12/2014 8:42,42.99,43.08,89,219,45,3.71,78.33,0
Raw,9/12/2014 8:43,43.67,41.58,85,201,48,3.25,75.60,0
Raw,9/12/2014 8:44,42.08,42.48,93,219,45,3.88,77.24,0
Raw,9/12/2014 8:45,40.02,41.03,88,186,47,3.12,74.60,0
Raw,9/12/2014 8:46,41.7,41.14,82,209,55,3.26,74.80,0
Raw,9/12/2014 8:47,40.38,40.78,90,203,50,3.48,74.15,0
Raw,9/12/2014 8:48,40.19,40.47,95,206,52,3.73,73.58,0
Raw,9/12/2014 8:49,43.74,41.72,84,192,47,3.07,75.85,0
Raw,9/12/2014 8:50,43.34,43.19,84,191,48,3.05,78.53,0
Raw,9/12/2014 8:51,42.44,43.65,95,220,45,3.98,79.36,0
Raw,9/12/2014 8:52,43.35,41.03,94,188,46,3.36,74.60,0
Raw,9/12/2014 8:53,41.2,40.06,92,191,49,3.35,72.84,0
Raw,9/12/2014 8:54,42.52,43.39,100,210,53,4.00,78.89,0
Raw,9/12/2014 8:55,41.64,42.22,83,197,49,3.11,76.76,0
Raw,9/12/2014 8:56,43.96,43.39,100,195,50,3.71,78.89,0
Raw,9/12/2014 8:57,43.56,42.04,99,199,47,3.75,76.44,0
Raw,9/12/2014 8:58,42.71,40.42,95,188,51,3.40,73.49,0
Raw,9/12/2014 8:59,43.33,43.21,96,220,48,4.02,78.56,0
Raw,9/12/2014 9:00,43.47,43.94,87,219,47,3.63,79.89,0
Raw,9/12/2014 9:01,42.46,43.75,81,203,51,3.13,79.55,0
Raw,9/12/2014 9:02,40.37,42.83,93,196,52,3.47,77.87,0
Raw,9/12/2014 9:03,43.05,41.35,96,215,52,3.93,75.18,0
Raw,9/12/2014 9:04,41.37,42.09,95,212,48,3.83,76.53,0
Raw,9/12/2014 9:05,42.97,42.36,91,206,55,3.57,77.02,0
Raw,9/12/2014 9:06,42.67,43.59,90,181,47,3.10,79.25,0
Raw,9/12/2014 9:07,42.31,43.53,84,182,46,2.91,79.15,0
Raw,9/12/2014 9:08,43.44,41.85,82,198,48,3.09,76.09,0
Raw,9/12/2014 9:09,41.71,43.58,87,186,50,3.08,79.24,0
Raw,9/12/2014 9:10,41.01,41.57,97,189,52,3.49,75.58,0
Raw,9/12/2014 9:11,42.08,42,83,184,54,2.91,76.36,0
Raw,9/12/2014 9:12,41.38,43.32,100,203,54,3.87,78.76,0
Raw,9/12/2014 9:13,41.63,42.09,96,218,48,3.98,76.53,0
Raw,9/12/2014 9:14,43.85,40.48,81,213,45,3.29,73.60,0
Raw,9/12/2014 9:15,40.14,42.29,84,213,55,3.41,76.89,0
Raw,9/12/2014 9:16,43.06,43.07,95,199,46,3.60,78.31,0
Raw,9/12/2014 9:17,42.94,40.94,97,195,46,3.60,74.44,0
Raw,9/12/2014 9:18,42.39,43.57,97,205,45,3.79,79.22,0
Raw,9/12/2014 9:19,40.39,43.67,91,189,54,3.27,79.40,0
Raw,9/12/2014 9:20,40.87,40.75,86,204,45,3.34,74.09,0
Raw,9/12/2014 9:21,42.32,42.32,86,218,49,3.57,76.95,0
Raw,9/12/2014 9:22,42.03,43.44,99,199,49,3.75,78.98,0
Raw,9/12/2014 9:23,42.44,42.97,87,184,52,3.05,78.13,0
Raw,9/12/2014 9:24,41.95,43.86,85,209,49,3.38,79.75,0
Raw,9/12/2014 9:25,43.59,42,89,204,54,3.46,76.36,0
Raw,9/12/2014 9:26,42.09,43.29,100,204,47,3.88,78.71,0
Raw,9/12/2014 9:27,42.72,40.37,99,198,54,3.73,73.40,0
Raw,9/12/2014 9:28,43.25,40.35,88,208,55,3.49,73.36,0
Raw,9/12/2014 9:29,40.28,43.15,80,188,45,2.86,78.45,0
Raw,9/12/2014 9:30,43.13,42.95,84,191,52,3.05,78.09,0
Raw,9/12/2014 9:31,40.02,40.1,87,204,54,3.38,72.91,0
Raw,9/12/2014 9:32,40.11,40.59,85,217,45,3.51,73.80,0
Raw,9/12/2014 9:33,41.38,43.68,92,207,50,3.63,79.42,0
Raw,9/12/2014 9:34,42.43,40.16,98,181,49,3.38,73.02,0
Raw,9/12/2014 9:35,41.13,42,93,202,47,3.58,76.36,0
Raw,9/12/2014 9:36,40.51,41.06,84,199,54,3.18,74.65,0
Raw,9/12/2014 9:37,43.58,43.59,81,187,46,2.88,79.25,0
Raw,9/12/2014 9:38,40.81,42.08,95,206,55,3.73,76.51,0
Raw,9/12/2014 9:39,43.66,43.21,83,214,45,3.38,78.56,0
Raw,9/12/2014 9:40,43.92,43.1,80,201,53,3.06,78.36,0
Raw,9/12/2014 9:41,41.42,42.44,96,207,46,3.78,77.16,0
Raw,9/12/2014 9:42,42.91,41.85,91,209,49,3.62,76.09,0
Raw,9/12/2014 9:43,42.98,41.2,80,200,55,3.05,74.91,0
Raw,9/12/2014 9:44,42.29,43.66,90,209,48,3.58,79.38,0
Raw,9/12/2014 9:45,41.03,40.93,93,199,49,3.52,74.42,0
Raw,9/12/2014 9:46,40.05,43.81,81,189,52,2.91,79.65,0
Raw,9/12/2014 9:47,40.04,43.21,90,185,49,3.17,78.56,0
Raw,9/12/2014 9:48,40.69,42.99,84,185,46,2.96,78.16,0
Raw,9/12/2014 9:49,41.72,40.1,80,196,50,2.99,72.91,0
Raw,9/12/2014 9:50,41.2,43.75,87,214,55,3.54,79.55,0
Raw,9/12/2014 9:51,40.25,43.71,95,200,51,3.62,79.47,0
Raw,9/12/2014 9:52,40.86,40.1,97,185,48,3.42,72.91,0
Raw,9/12/2014 9:53,41.11,40.32,98,187,48,3.49,73.31,0
Raw,9/12/2014 9:54,41.51,41.77,86,195,46,3.19,75.95,0
Raw,9/12/2014 9:55,41.96,41.4,95,199,48,3.60,75.27,0
Raw,9/12/2014 9:56,40.87,41.57,96,193,55,3.53,75.58,0
Raw,9/12/2014 9:57,43.91,41.63,88,191,50,3.20,75.69,0
Raw,9/12/2014 9:58,41.6,40.39,98,185,53,3.45,73.44,0
Raw,9/12/2014 9:59,40.74,41.73,99,190,52,3.58,75.87,0
Raw,9/12/2014 10:00,41.82,42.77,93,203,53,3.59,77.76,0
Raw,9/12/2014 10:01,41.95,40.33,82,196,53,3.06,73.33,0
Raw,9/12/2014 10:02,42.28,42.67,81,205,52,3.16,77.58,0
Raw,9/12/2014 10:03,42.13,43.95,100,192,48,3.66,79.91,0
Raw,9/12/2014 10:04,40.54,40,92,216,53,3.78,72.73,0
Raw,9/12/2014 10:05,43.71,40.87,86,180,48,2.95,74.31,0
Raw,9/12/2014 10:06,42.79,41.59,88,206,50,3.45,75.62,0
Raw,9/12/2014 10:07,41.67,42.83,94,191,47,3.42,77.87,0
Raw,9/12/2014 10:08,41.18,42.63,85,217,47,3.51,77.51,0
Raw,9/12/2014 10:09,41.69,41.72,81,208,49,3.21,75.85,0
Raw,9/12/2014 10:10,42.28,40.69,83,217,48,3.43,73.98,0
Raw,9/12/2014 10:11,40.01,41.99,85,188,48,3.04,76.35,0
Raw,9/12/2014 10:12,40.79,41.01,94,183,49,3.28,74.56,0
Raw,9/12/2014 10:13,42.61,42.25,87,189,51,3.13,76.82,0
Raw,9/12/2014 10:14,40.14,40.57,91,209,52,3.62,73.76,0
Raw,9/12/2014 10:15,42.73,41.67,81,201,46,3.10,75.76,0
Raw,9/12/2014 10:16,40.93,41.75,96,180,53,3.29,75.91,0
Raw,9/12/2014 10:17,44,41.67,80,217,53,3.31,75.76,0
Raw,9/12/2014 10:18,42.32,40.53,80,199,54,3.03,73.69,0
Raw,9/12/2014 10:19,43.2,43.33,90,210,51,3.60,78.78,0
Raw,9/12/2014 10:20,41.94,42.75,91,220,46,3.81,77.73,0
Raw,9/12/2014 10:21,42.58,41.72,91,180,53,3.12,75.85,0
Raw,9/12/2014 10:22,43.9,42.16,100,203,46,3.87,76.65,0
Raw,9/12/2014 10:23,43.78,41.31,87,212,51,3.51,75.11,0
Raw,9/12/2014 10:24,41.29,43.07,80,187,53,2.85,78.31,0
Raw,9/12/2014 10:25,43.32,43.58,84,209,50,3.34,79.24,0
Raw,9/12/2014 10:26,43.41,43.7,86,209,45,3.42,79.45,0
Raw,9/12/2014 10:27,40.59,43.69,84,199,55,3.18,79.44,0
Raw,9/12/2014 10:28,43.19,43.44,84,180,53,2.88,78.98,0
Raw,9/12/2014 10:29,40.91,42.67,94,220,46,3.94,77.58,0
Raw,9/12/2014 10:30,41.59,40.56,98,186,54,3.47,73.75,0
Raw,9/12/2014 10:31,43.8,41.56,98,217,49,4.05,75.56,0
Raw,9/12/2014 10:32,44.6,43.88,97,233,52,4.30,81.09,0
Raw,9/12/2014 10:33,43.41,43.73,103,224,52,4.39,78.93,0
Raw,9/12/2014 10:34,44.16,44.47,98,230,52,4.29,80.29,0
Raw,9/12/2014 10:35,44.3,44.96,95,223,55,4.03,80.55,0
Raw,9/12/2014 10:36,43.89,44.12,99,236,53,4.45,79.80,0
Raw,9/12/2014 10:37,42.99,42.54,101,220,52,4.23,78.16,0
Raw,9/12/2014 10:38,43.46,44.19,98,236,55,4.40,79.02,0
Raw,9/12/2014 10:39,43.46,44.37,99,234,52,4.41,79.02,0
Raw,9/12/2014 10:40,44.61,42.71,102,225,53,4.37,81.11,0
Raw,9/12/2014 10:41,42.5,43.12,105,234,52,4.68,77.27,0
Raw,9/12/2014 10:42,43.31,43.55,95,235,52,4.25,78.75,0
Raw,9/12/2014 10:43,42.57,44.22,98,232,52,4.33,77.40,0
Raw,9/12/2014 10:44,43.75,44.02,103,231,53,4.53,79.55,0
Raw,9/12/2014 10:45,42.51,43.27,95,225,55,4.07,77.29,0
Raw,9/12/2014 10:46,42.03,43.47,95,231,55,4.18,76.42,0
Raw,9/12/2014 10:47,42.46,44.14,95,225,52,4.07,77.20,0
Raw,9/12/2014 10:48,44.46,44.27,98,233,54,4.35,80.84,0
Raw,9/12/2014 10:49,44.5,42.9,101,239,54,4.60,80.91,0
Raw,9/12/2014 10:50,42.34,44.41,100,223,53,4.25,76.98,0
Raw,9/12/2014 10:51,44.94,44.61,96,230,52,4.20,81.71,0
Raw,9/12/2014 10:52,44.08,43.43,99,228,53,4.30,80.15,0
Raw,9/12/2014 10:53,42.79,42.51,100,231,54,4.40,77.80,0
Raw,9/12/2014 10:54,44.68,42.88,98,234,55,4.37,81.24,0
Raw,9/12/2014 10:55,42.9,43.26,104,236,53,4.67,78.00,0
Raw,9/12/2014 10:56,43.68,43.5,105,230,55,4.60,79.42,0
Raw,9/12/2014 10:57,44.24,43.3,103,238,55,4.67,80.44,0
Raw,9/12/2014 10:58,43.38,42.93,103,221,52,4.33,78.87,0
Raw,9/12/2014 10:59,44.42,44.9,100,233,52,4.44,80.76,0
Raw,9/12/2014 11:00,43.14,44.26,97,234,54,4.32,78.44,0
Raw,9/12/2014 11:01,42.57,44.94,101,229,52,4.40,77.40,0
Raw,9/12/2014 11:02,43.02,42.41,97,225,54,4.16,78.22,0
Raw,9/12/2014 11:03,44.39,42.11,95,231,53,4.18,80.71,0
Raw,9/12/2014 11:04,44.05,43.77,95,233,54,4.21,80.09,0
Raw,9/12/2014 11:05,42.28,43.63,103,221,53,4.33,76.87,0
Raw,9/12/2014 11:06,44.16,42.93,103,228,55,4.47,80.29,0
Raw,9/12/2014 11:07,44.72,42.05,97,221,53,4.08,81.31,0
Raw,9/12/2014 11:08,43.4,44.72,98,220,55,4.11,78.91,0
Raw,9/12/2014 11:09,42.22,42.76,102,220,53,4.27,76.76,0
Raw,9/12/2014 11:10,44.25,44.35,97,224,55,4.14,80.45,0
Raw,9/12/2014 11:11,44.68,44.85,97,234,55,4.32,81.24,0
Raw,9/12/2014 11:12,44.06,42.3,98,240,54,4.48,80.11,0
Raw,9/12/2014 11:13,42.8,42.8,105,229,54,4.58,77.82,0
Raw,9/12/2014 11:14,43.38,43.17,98,227,54,4.24,78.87,0
Raw,9/12/2014 11:15,42.09,40.56,104,222,53,4.40,76.53,0
Raw,9/12/2014 11:16,40.2,40.25,100,203,45,3.87,73.18,0
Raw,9/12/2014 11:17,41.13,42.33,96,193,50,3.53,76.96,0
Raw,9/12/2014 11:18,40.67,43.34,98,197,51,3.68,78.80,0
Raw,9/12/2014 11:19,42.24,41,80,192,50,2.92,74.55,0
Raw,9/12/2014 11:20,42.38,41.7,87,188,53,3.11,75.82,0
Raw,9/12/2014 11:21,43.78,40.13,92,185,45,3.24,72.96,0
Raw,9/12/2014 11:22,41.26,43.09,82,201,46,3.14,78.35,0
Raw,9/12/2014 11:23,41.74,42.09,80,180,55,2.74,76.53,0
Raw,9/12/2014 11:24,43.05,42.09,99,190,52,3.58,76.53,0
Raw,9/12/2014 11:25,41.01,40.36,82,214,53,3.34,73.38,0
Raw,9/12/2014 11:26,40.65,43.38,90,190,52,3.26,78.87,0
Raw,9/12/2014 11:27,40.1,42.59,88,183,48,3.07,77.44,0
Raw,9/12/2014 11:28,41.08,44,89,210,47,3.56,80.00,0
Raw,9/12/2014 11:29,42.01,41.94,82,199,47,3.11,76.25,0
Raw,9/12/2014 11:30,41.36,40.88,83,218,52,3.45,74.33,0
Raw,9/12/2014 11:31,40.18,42.29,94,211,52,3.78,76.89,0
Raw,9/12/2014 11:32,40.56,42.79,90,199,49,3.41,77.80,0
Raw,9/12/2014 11:33,43.08,40.4,90,195,49,3.34,73.45,0
Raw,9/12/2014 11:34,42.73,43.29,100,202,51,3.85,78.71,0
Raw,9/12/2014 11:35,41.72,40.87,93,210,51,3.72,74.31,0
Raw,9/12/2014 11:36,43.51,40.38,90,207,48,3.55,73.42,0
Raw,9/12/2014 11:37,42.36,40.75,95,217,53,3.93,74.09,0
Raw,9/12/2014 11:38,41.88,40.05,85,189,54,3.06,72.82,0
Raw,9/12/2014 11:39,43.36,43.91,86,202,53,3.31,79.84,0
Raw,9/12/2014 11:40,40.44,43.47,90,204,45,3.50,79.04,0
Raw,9/12/2014 11:41,41.66,40.99,98,204,45,3.81,74.53,0
Raw,9/12/2014 11:42,42.8,40.27,87,189,46,3.13,73.22,0
Raw,9/12/2014 11:43,42.55,43.61,89,215,47,3.64,79.29,0
Raw,9/12/2014 11:44,40.56,40.63,85,189,50,3.06,73.87,0
Raw,9/12/2014 11:45,43.04,43.69,97,207,46,3.82,79.44,0
Raw,9/12/2014 11:46,42.42,43.01,100,208,46,3.96,78.20,0
Raw,9/12/2014 11:47,40.64,41.46,94,205,45,3.67,75.38,0
Raw,9/12/2014 11:48,41.55,42.54,95,206,48,3.73,77.35,0
Raw,9/12/2014 11:49,42.44,43.69,93,193,45,3.42,79.44,0
Raw,9/12/2014 11:50,42.21,43.38,86,213,48,3.49,78.87,0
Raw,9/12/2014 11:51,42.64,42.81,96,210,52,3.84,77.84,0
Raw,9/12/2014 11:52,42.29,41.52,88,189,54,3.17,75.49,0
Raw,9/12/2014 11:53,41.36,43.37,93,215,52,3.81,78.85,0
Raw,9/12/2014 11:54,43.06,42.36,80,194,55,2.96,77.02,0
Raw,9/12/2014 11:55,40.17,40.29,85,183,51,2.96,73.25,0
Raw,9/12/2014 11:56,41.83,41.68,99,200,45,3.77,75.78,0
Raw,9/12/2014 11:57,41.28,42.58,89,204,52,3.46,77.42,0
Raw,9/12/2014 11:58,41.37,41.82,95,200,53,3.62,76.04,0
Raw,9/12/2014 11:59,43.67,43.09,88,202,50,3.38,78.35,0
Raw,9/12/2014 12:00,41.56,43.62,90,186,54,3.19,79.31,0
Raw,9/12/2014 12:01,41.21,40.11,89,213,48,3.61,72.93,0
Raw,9/12/2014 12:02,43.17,40.37,89,207,47,3.51,73.40,0
Raw,9/12/2014 12:03,41.23,42.34,82,180,46,2.81,76.98,0
Raw,9/12/2014 12:04,41,41,91,204,51,3.53,74.55,0
Raw,9/12/2014 12:05,40.88,42.28,96,195,55,3.56,76.87,0
Raw,9/12/2014 12:06,42.25,40.23,100,207,52,3.94,73.15,0
Raw,9/12/2014 12:07,43.22,41.92,86,189,50,3.09,76.22,0
Raw,9/12/2014 12:08,40.17,40.74,95,203,50,3.67,74.07,0
Raw,9/12/2014 12:09,43,41.23,98,214,45,3.99,74.96,0
Raw,9/12/2014 12:10,42.17,41.48,87,182,49,3.01,75.42,0
Raw,9/12/2014 12:11,42.33,43.28,80,186,48,2.83,78.69,0
Raw,9/12/2014 12:12,41.57,42.01,89,210,49,3.56,76.38,0
Raw,9/12/2014 12:13,41.87,41.82,86,204,49,3.34,76.04,0
Raw,9/12/2014 12:14,43.4,43.32,83,191,47,3.02,78.76,0
Raw,9/12/2014 12:15,43.21,41.8,88,201,52,3.37,76.00,0
Raw,9/12/2014 12:16,42.5,42.65,81,212,53,3.27,77.55,0
Raw,9/12/2014 12:17,43.03,43.34,94,187,50,3.35,78.80,0
Raw,9/12/2014 12:18,42.05,41.91,84,217,50,3.47,76.20,0
Raw,9/12/2014 12:19,43,43.48,81,198,53,3.05,79.05,0
Raw,9/12/2014 12:20,42.13,42.49,97,203,45,3.75,77.25,0
Raw,9/12/2014 12:21,41.88,42.71,87,203,47,3.36,77.65,0
Raw,9/12/2014 12:22,40.36,42.78,84,196,48,3.13,77.78,0
Raw,9/12/2014 12:23,41.37,42.52,91,205,55,3.55,77.31,0
Raw,9/12/2014 12:24,42.36,43.67,81,220,46,3.39,79.40,0
Raw,9/12/2014 12:25,40.79,40.15,83,188,55,2.97,73.00,0
Raw,9/12/2014 12:26,41.21,42.47,81,193,48,2.98,77.22,0
Raw,9/12/2014 12:27,43.28,41.77,93,197,53,3.49,75.95,0
Raw,9/12/2014 12:28,43.71,41.98,84,183,46,2.93,76.33,0
Raw,9/12/2014 12:29,41.35,42.6,82,188,55,2.94,77.45,0
Raw,9/12/2014 12:30,42.97,43.81,92,181,46,3.17,79.65,0
Raw,9/12/2014 12:31,42.27,43.94,97,200,50,3.69,79.89,0
Raw,9/12/2014 12:32,42.37,43.75,89,206,52,3.49,79.55,0
Raw,9/12/2014 12:33,40.04,40.58,90,204,51,3.50,73.78,0
Raw,9/12/2014 12:34,43.11,43.92,88,218,52,3.65,79.85,0
Raw,9/12/2014 12:35,42.25,43.63,99,185,53,3.49,79.33,0
Raw,9/12/2014 12:36,41.5,40.27,87,182,50,3.01,73.22,0
Raw,9/12/2014 12:37,40.35,40.15,88,183,50,3.07,73.00,0
Raw,9/12/2014 12:38,42.66,42.21,87,217,51,3.59,76.75,0
Raw,9/12/2014 12:39,42.98,40.33,98,189,48,3.53,73.33,0
Raw,9/12/2014 12:40,41.05,43.57,88,215,50,3.60,79.22,0
Raw,9/12/2014 12:41,42.55,40,85,217,52,3.51,72.73,0
Raw,9/12/2014 12:42,41.08,43.78,85,207,50,3.35,79.60,0
Raw,9/12/2014 12:43,40.22,42.28,84,208,45,3.33,76.87,0
Raw,9/12/2014 12:44,42.61,42.66,84,211,45,3.37,77.56,0
Raw,9/12/2014 12:45,43.19,41.25,85,200,49,3.24,75.00,0
Raw,9/12/2014 12:46,43.1,43.08,81,206,49,3.18,78.33,0
Raw,9/12/2014 12:47,40.47,43.27,94,182,53,3.26,78.67,0
Raw,9/12/2014 12:48,42.67,42.69,99,215,49,4.05,77.62,0
Raw,9/12/2014 12:49,42,41.94,84,198,46,3.17,76.25,0
Raw,9/12/2014 12:50,40.76,42.87,81,191,48,2.95,77.95,0
Raw,9/12/2014 12:51,43.19,43.49,84,188,52,3.01,79.07,0
Raw,9/12/2014 12:52,43.6,40.9,88,188,49,3.15,74.36,0
Raw,9/12/2014 12:53,42.02,41.83,98,185,51,3.45,76.05,0
Raw,9/12/2014 12:54,43.24,41.6,89,185,46,3.13,75.64,0
Raw,9/12/2014 12:55,43.68,41.64,93,200,49,3.54,75.71,0
Raw,9/12/2014 12:56,40.28,42.3,100,212,49,4.04,76.91,0
Raw,9/12/2014 12:57,43.24,40.35,87,209,46,3.46,73.36,0
Raw,9/12/2014 12:58,42.55,42.12,89,191,48,3.24,76.58,0
Raw,9/12/2014 12:59,42.78,41.22,98,199,51,3.71,74.95,0
Raw,9/12/2014 13:00,42.29,42.64,81,213,46,3.29,77.53,0
Raw,9/12/2014 13:01,41.55,42.04,100,207,54,3.94,76.44,0
Raw,9/12/2014 13:02,40.08,43.14,87,217,46,3.59,78.44,0
Raw,9/12/2014 13:03,42.81,43.5,89,218,47,3.69,79.09,0
Raw,9/12/2014 13:04,40.43,42.29,83,205,48,3.24,76.89,0
Raw,9/12/2014 13:05,41.36,40.29,96,198,52,3.62,73.25,0
Raw,9/12/2014 13:06,41.7,41.43,96,208,46,3.80,75.33,0
Raw,9/12/2014 13:07,40.25,40.59,90,200,51,3.43,73.80,0
Raw,9/12/2014 13:08,43.35,40.53,81,217,53,3.35,73.69,0
Raw,9/12/2014 13:09,43.78,43.32,82,212,45,3.31,78.76,0
Raw,9/12/2014 13:10,43.5,41.97,83,214,53,3.38,76.31,0
Raw,9/12/2014 13:11,41.07,42.19,89,214,46,3.63,76.71,0
Raw,9/12/2014 13:12,40.08,41.67,91,220,45,3.81,75.76,0
Raw,9/12/2014 13:13,41.12,40.68,93,183,52,3.24,73.96,0
Raw,9/12/2014 13:14,40.43,42.75,94,196,48,3.51,77.73,0
Raw,9/12/2014 13:15,41.21,42.91,94,203,52,3.63,78.02,0
Raw,9/12/2014 13:16,43.4,40.63,93,180,54,3.19,73.87,0
Raw,9/12/2014 13:17,43.07,42.09,86,210,46,3.44,76.53,0
Raw,9/12/2014 13:18,41.89,42.77,84,188,46,3.01,77.76,0
Raw,9/12/2014 13:19,42.65,40.94,86,203,55,3.32,74.44,0
Raw,9/12/2014 13:20,41.74,43.03,80,195,55,2.97,78.24,0
Raw,9/12/2014 13:21,41.3,41.34,95,192,49,3.47,75.16,0
Raw,9/12/2014 13:22,42.03,41.32,97,215,45,3.97,75.13,0
Raw,9/12/2014 13:23,43.52,42.78,92,192,55,3.36,77.78,0
Raw,9/12/2014 13:24,40.02,42.74,87,206,55,3.41,77.71,0
Raw,9/12/2014 13:25,43.26,40.35,91,187,53,3.24,73.36,0
Raw,9/12/2014 13:26,43.57,41.98,98,185,53,3.45,76.33,0
Raw,9/12/2014 13:27,41.48,42.84,94,220,55,3.94,77.89,0
Raw,9/12/2014 13:28,40.6,41.92,96,203,53,3.71,76.22,0
Raw,9/12/2014 13:29,43.01,42.79,85,217,52,3.51,77.80,0
Raw,9/12/2014 13:30,41.47,40.41,87,201,48,3.33,73.47,0
Raw,9/12/2014 13:31,40.95,42.79,99,218,47,4.11,77.80,0
Raw,9/12/2014 13:32,41.37,43.26,92,183,50,3.21,78.65,0
Raw,9/12/2014 13:33,41.44,41.39,81,202,46,3.12,75.25,0
Raw,9/12/2014 13:34,42.27,40.07,89,218,52,3.69,72.85,0
Raw,9/12/2014 13:35,42.4,43.31,81,214,50,3.30,78.75,0
Raw,9/12/2014 13:36,40.84,42.82,88,201,50,3.37,77.85,0
Raw,9/12/2014 13:37,40.73,42.55,100,217,48,4.13,77.36,0
Raw,9/12/2014 13:38,42.29,40.18,92,190,50,3.33,73.05,0
Raw,9/12/2014 13:39,43.16,40.71,91,218,51,3.78,74.02,0
Raw,9/12/2014 13:40,41.76,43.94,88,201,47,3.37,79.89,0
Raw,9/12/2014 13:41,40,40.87,86,205,51,3.36,74.31,0
Raw,9/12/2014 13:42,41.11,42.05,80,206,51,3.14,76.45,0
Raw,9/12/2014 13:43,40.8,42.34,98,193,45,3.60,76.98,0
Raw,9/12/2014 13:44,43.54,40.91,92,199,51,3.49,74.38,0
Raw,9/12/2014 13:45,41.02,43.24,89,207,52,3.51,78.62,0
Raw,9/12/2014 13:46,41.78,40.7,97,198,45,3.66,74.00,0
Raw,9/12/2014 13:47,43.68,40.85,86,193,54,3.16,74.27,0
Raw,9/12/2014 13:48,40.6,42.42,93,207,47,3.67,77.13,0
Raw,9/12/2014 13:49,41.31,40.83,88,196,46,3.28,74.24,0
Raw,9/12/2014 13:50,40.39,43.17,95,206,47,3.73,78.49,0
Raw,9/12/2014 13:51,41.91,40.2,85,201,46,3.25,73.09,0
Raw,9/12/2014 13:52,41.93,43.41,93,211,48,3.74,78.93,0
Raw,9/12/2014 13:53,41.99,41.3,96,204,45,3.73,75.09,0
Raw,9/12/2014 13:54,41.13,41.71,81,180,53,2.78,75.84,0
Raw,9/12/2014 13:55,43.5,41.64,94,206,53,3.69,75.71,0
Raw,9/12/2014 13:56,41.28,41.91,80,196,51,2.99,76.20,0
Raw,9/12/2014 13:57,41.86,42.97,92,220,55,3.85,78.13,0
Raw,9/12/2014 13:58,41.37,40.54,84,219,53,3.50,73.71,0
Raw,9/12/2014 13:59,40.19,41.03,93,206,50,3.65,74.60,0
Raw,9/12/2014 14:00,42.46,42.19,92,206,49,3.61,76.71,0
Raw,9/12/2014 14:01,41.34,43.54,87,214,48,3.54,79.16,0
Raw,9/12/2014 14:02,40.4,42.44,100,194,55,3.69,77.16,0
Raw,9/12/2014 14:03,41.89,41.42,86,217,46,3.55,75.31,0
Raw,9/12/2014 14:04,42.57,43.77,94,184,48,3.29,79.58,0
Raw,9/12/2014 14:05,43.91,40.11,97,193,54,3.56,72.93,0
Raw,9/12/2014 14:06,41.2,42.13,86,200,45,3.27,76.60,0
Raw,9/12/2014 14:07,41.09,40.13,86,209,51,3.42,72.96,0
Raw,9/12/2014 14:08,40.64,40.59,86,214,49,3.50,73.80,0
Raw,9/12/2014 14:09,42.6,41.36,88,206,52,3.45,75.20,0
Raw,9/12/2014 14:10,41.13,42.66,81,183,50,2.82,77.56,0
Raw,9/12/2014 14:11,40.53,43.59,94,220,54,3.94,79.25,0
Raw,9/12/2014 14:12,41.45,42.48,84,183,53,2.93,77.24,0
Raw,9/12/2014 14:13,40.21,42.61,97,218,51,4.03,77.47,0
Raw,9/12/2014 14:14,41.98,40.44,80,204,49,3.11,73.53,0
Raw,9/12/2014 14:15,41.8,40.96,93,183,47,3.24,74.47,0
Raw,9/12/2014 14:16,43.62,43.09,99,203,48,3.83,78.35,0
Raw,9/12/2014 14:17,40.71,42.82,85,215,48,3.48,77.85,0
Raw,9/12/2014 14:18,40.84,41.86,86,196,51,3.21,76.11,0
Raw,9/12/2014 14:19,42.04,41.34,90,214,48,3.67,75.16,0
Raw,9/12/2014 14:20,40.92,41.47,98,216,50,4.03,75.40,0
Raw,9/12/2014 14:21,42.21,42.36,96,196,53,3.58,77.02,0
Raw,9/12/2014 14:22,40,41.66,81,185,52,2.85,75.75,0
Raw,9/12/2014 14:23,42.17,40.54,86,216,50,3.54,73.71,0
Raw,9/12/2014 14:24,43.38,40.76,83,212,49,3.35,74.11,0
Raw,9/12/2014 14:25,43.99,42.98,86,185,45,3.03,78.15,0
Raw,9/12/2014 14:26,40.8,40.06,94,198,55,3.54,72.84,0
Raw,9/12/2014 14:27,40.65,43.15,89,202,47,3.42,78.45,0
Raw,9/12/2014 14:28,41.77,40.27,93,206,53,3.65,73.22,0
Raw,9/12/2014 14:29,43.32,41.34,95,194,47,3.51,75.16,0
Raw,9/12/2014 14:30,40.98,43.61,90,207,52,3.55,79.29,0
Raw,9/12/2014 14:31,41.22,41.79,95,215,51,3.89,75.98,0
Raw,9/12/2014 14:32,42.29,42.86,89,187,53,3.17,77.93,0
Raw,9/12/2014 14:33,44,41.4,94,187,46,3.35,75.27,0
Raw,9/12/2014 14:34,42.38,41.81,94,206,49,3.69,76.02,0
Raw,9/12/2014 14:35,43.54,41.91,95,213,46,3.85,76.20,0
Raw,9/12/2014 14:36,43.27,40.45,95,220,49,3.98,73.55,0
Raw,9/12/2014 14:37,43.15,42.95,83,215,54,3.40,78.09,0
Raw,9/12/2014 14:38,42.53,42.49,95,209,51,3.78,77.25,0
Raw,9/12/2014 14:39,42.42,42.94,100,184,46,3.50,78.07,0
Raw,9/12/2014 14:40,40.7,42.74,83,210,45,3.32,77.71,0
Raw,9/12/2014 14:41,43.13,42.76,92,191,51,3.35,77.75,0
Raw,9/12/2014 14:42,43.78,43.81,91,196,49,3.40,79.65,0
Raw,9/12/2014 14:43,41.44,41.17,92,217,47,3.80,74.85,0
Raw,9/12/2014 14:44,41.69,43.48,95,206,54,3.73,79.05,0
Raw,9/12/2014 14:45,42.51,40.35,85,181,48,2.93,73.36,0
Raw,9/12/2014 14:46,43.8,43.81,88,193,48,3.23,79.65,0
Raw,9/12/2014 14:47,40.39,41.31,96,185,54,3.38,75.11,0
Raw,9/12/2014 14:48,40.11,41.56,85,186,45,3.01,75.56,0
Raw,9/12/2014 14:49,42.39,43.17,100,196,51,3.73,78.49,0
Raw,9/12/2014 14:50,43.67,43.75,97,186,53,3.44,79.55,0
Raw,9/12/2014 14:51,41.63,40.82,88,194,45,3.25,74.22,0
Raw,9/12/2014 14:52,43.95,43.48,93,187,46,3.31,79.05,0
Raw,9/12/2014 14:53,40.46,41.72,95,220,52,3.98,75.85,0
Raw,9/12/2014 14:54,41.96,40.03,89,216,48,3.66,72.78,0
Raw,9/12/2014 14:55,41.76,43.98,99,201,54,3.79,79.96,0
Raw,9/12/2014 14:56,42.48,43.64,91,219,50,3.79,79.35,0
Raw,9/12/2014 14:57,41.29,42.75,83,190,48,3.00,77.73,0
Raw,9/12/2014 14:58,42.18,43.39,92,206,55,3.61,78.89,0
Raw,9/12/2014 14:59,43.76,41.74,93,198,55,3.51,75.89,0
Raw,9/12/2014 15:00,40.51,42.91,85,217,49,3.51,78.02,0
Raw,9/12/2014 15:01,43.36,42.72,80,181,45,2.76,77.67,0
Raw,9/12/2014 15:02,41.5,40.88,94,218,48,3.90,74.33,0
Raw,9/12/2014 15:03,40.51,42.84,94,212,46,3.79,77.89,0
Raw,9/12/2014 15:04,42.86,42.14,92,196,48,3.43,76.62,0
Raw,9/12/2014 15:05,41.51,41.13,84,196,50,3.13,74.78,0
Raw,9/12/2014 15:06,43.89,41.78,83,209,52,3.30,75.96,0
Raw,9/12/2014 15:07,41.69,41.04,82,205,45,3.20,74.62,0
Raw,9/12/2014 15:08,43.55,41.61,94,197,54,3.53,75.65,0
Raw,9/12/2014 15:09,41.82,41.79,88,219,52,3.67,75.98,0
Raw,9/12/2014 15:10,42.73,43.76,84,196,50,3.13,79.56,0
Raw,9/12/2014 15:11,41.34,41.12,91,196,55,3.40,74.76,0
Raw,9/12/2014 15:12,42.78,41.26,87,213,52,3.53,75.02,0
Raw,9/12/2014 15:13,43.03,43.01,85,205,52,3.32,78.20,0
Raw,9/12/2014 15:14,40.41,43.22,80,200,55,3.05,78.58,0
Raw,9/12/2014 15:15,40.78,40.86,80,186,55,2.83,74.29,0
Raw,9/12/2014 15:16,43.09,42.98,100,199,55,3.79,78.15,0
Raw,9/12/2014 15:17,42.57,42.27,92,200,46,3.50,76.85,0
Raw,9/12/2014 15:18,40.27,41.91,87,186,48,3.08,76.20,0
Raw,9/12/2014 15:19,43.82,43.31,99,207,50,3.90,78.75,0
Raw,9/12/2014 15:20,43.81,42.22,100,219,53,4.17,76.76,0
Raw,9/12/2014 15:21,42.56,40.49,94,207,51,3.70,73.62,0
Raw,9/12/2014 15:22,42.08,42,82,213,52,3.33,76.36,0
Raw,9/12/2014 15:23,42.05,43.58,92,215,50,3.77,79.24,0
Raw,9/12/2014 15:24,41.42,40.66,80,211,45,3.21,73.93,0
Raw,9/12/2014 15:25,42.87,41,94,215,51,3.85,74.55,0
Raw,9/12/2014 15:26,42.96,42.07,96,209,50,3.82,76.49,0
Raw,9/12/2014 15:27,42.51,43.12,84,214,50,3.42,78.40,0
Raw,9/12/2014 15:28,42.13,43.24,88,202,50,3.38,78.62,0
Raw,9/12/2014 15:29,42.88,40.2,82,199,47,3.11,73.09,0
Raw,9/12/2014 15:30,40.9,41.14,92,191,46,3.35,74.80,0
Raw,9/12/2014 15:31,40.44,42.2,80,218,46,3.32,76.73,0
Raw,9/12/2014 15:32,43.03,41.35,99,187,46,3.52,75.18,0
Raw,9/12/2014 15:33,40.17,43.6,95,186,51,3.36,79.27,0
Raw,9/12/2014 15:34,41.18,41.83,98,219,51,4.09,76.05,0
Raw,9/12/2014 15:35,43,43.77,91,219,53,3.79,79.58,0
Raw,9/12/2014 15:36,41.61,41.17,98,212,55,3.96,74.85,0
Raw,9/12/2014 15:37,41.29,40.83,94,188,49,3.36,74.24,0
Raw,9/12/2014 15:38,43.58,43.02,95,207,49,3.74,78.22,0
Raw,9/12/2014 15:39,42.43,40.44,86,186,47,3.05,73.53,0
Raw,9/12/2014 15:40,40.13,41.56,84,204,45,3.26,75.56,0
Raw,9/12/2014 15:41,41.85,40.54,83,191,52,3.02,73.71,0
Raw,9/12/2014 15:42,40.77,42.17,92,209,46,3.66,76.67,0
Raw,9/12/2014 15:43,43.22,42.95,90,209,48,3.58,78.09,0
Raw,9/12/2014 15:44,42.83,41.41,96,203,55,3.71,75.29,0
Raw,9/12/2014 15:45,43.63,43.57,81,199,55,3.07,79.22,0
Raw,9/12/2014 15:46,40.53,41.84,91,195,52,3.38,76.07,0
Raw,9/12/2014 15:47,43.95,40.47,80,180,54,2.74,73.58,0
Raw,9/12/2014 15:48,41.53,42.3,86,202,51,3.31,76.91,0
Raw,9/12/2014 15:49,40.54,40.57,92,190,50,3.33,73.76,0
Raw,9/12/2014 15:50,40.46,41.16,89,211,48,3.58,74.84,0
Raw,9/12/2014 15:51,43.32,40.99,86,195,48,3.19,74.53,0
Raw,9/12/2014 15:52,40.07,43.5,91,203,51,3.52,79.09,0
Raw,9/12/2014 15:53,41.28,41.86,80,204,45,3.11,76.11,0
Raw,9/12/2014 15:54,43.66,41.48,93,184,54,3.26,75.42,0
Raw,9/12/2014 15:55,42.79,42.38,81,212,52,3.27,77.05,0
Raw,9/12/2014 15:56,43.16,43.59,81,199,48,3.07,79.25,0
Raw,9/12/2014 15:57,42,42.22,94,197,47,3.53,76.76,0
Raw,9/12/2014 15:58,43.78,43.63,85,213,47,3.45,79.33,0
Raw,9/12/2014 15:59,43.19,40.48,80,215,54,3.27,73.60,0
Raw,9/12/2014 16:00,41.46,41.23,92,207,49,3.63,74.96,0
Raw,9/12/2014 16:01,42.26,42.2,97,218,53,4.03,76.73,0
Raw,9/12/2014 16:02,40.22,40.88,87,213,51,3.53,74.33,0
Raw,9/12/2014 16:03,41.28,40.49,96,213,46,3.89,73.62,0
Raw,9/12/2014 16:04,42.13,41.66,90,217,52,3.72,75.75,0
Raw,9/12/2014 16:05,40.29,42.51,84,207,55,3.31,77.29,0
Raw,9/12/2014 16:06,40.92,40.21,94,214,45,3.83,73.11,0
Raw,9/12/2014 16:07,41.8,41.55,88,208,53,3.49,75.55,0
Raw,9/12/2014 16:08,41.64,43.55,99,202,55,3.81,79.18,0
Raw,9/12/2014 16:09,43.74,41.73,98,204,46,3.81,75.87,0
Raw,9/12/2014 16:10,40.79,40.97,88,197,51,3.30,74.49,0
Raw,9/12/2014 16:11,43.26,40.96,96,195,49,3.56,74.47,0
Raw,9/12/2014 16:12,41.47,41.65,88,184,51,3.08,75.73,0
Raw,9/12/2014 16:13,41.54,42.75,91,184,52,3.19,77.73,0
Raw,9/12/2014 16:14,43.98,41.79,84,215,54,3.44,75.98,0
Raw,9/12/2014 16:15,43.92,42.48,87,197,53,3.26,77.24,0
Raw,9/12/2014 16:16,41.19,43.72,97,213,49,3.93,79.49,0
Raw,9/12/2014 16:17,42.24,41.13,85,180,48,2.91,74.78,0
Raw,9/12/2014 16:18,43.28,41.79,94,207,45,3.70,75.98,0
Raw,9/12/2014 16:19,42.15,43.15,91,211,54,3.66,78.45,0
Raw,9/12/2014 16:20,43.98,43.42,88,215,55,3.60,78.95,0
Raw,9/12/2014 16:21,43.85,41.46,82,195,53,3.04,75.38,0
Raw,9/12/2014 16:22,43.1,42.47,85,194,53,3.14,77.22,0
Raw,9/12/2014 16:23,41.5,43.06,93,219,51,3.88,78.29,0
Raw,9/12/2014 16:24,42.79,40.28,98,181,48,3.38,73.24,0
Raw,9/12/2014 16:25,42,43.99,87,205,54,3.40,79.98,0
Raw,9/12/2014 16:26,40.22,41.08,91,183,47,3.17,74.69,0
Raw,9/12/2014 16:27,40.65,40.22,88,194,55,3.25,73.13,0
Raw,9/12/2014 16:28,40.17,43.2,85,200,46,3.24,78.55,0
Raw,9/12/2014 16:29,42.88,43.88,92,190,49,3.33,79.78,0
Raw,9/12/2014 16:30,42.79,40.45,99,189,48,3.56,73.55,0
Raw,9/12/2014 16:31,43.34,43.53,89,188,45,3.19,79.15,0
Raw,9/12/2014 16:32,42.15,40.41,93,205,53,3.63,73.47,0
Raw,9/12/2014 16:33,40.33,43.22,91,191,50,3.31,78.58,0
Raw,9/12/2014 16:34,43.87,42.52,95,182,50,3.29,77.31,0
Raw,9/12/2014 16:35,42.85,42.43,96,195,54,3.56,77.15,0
Raw,9/12/2014 16:36,43.79,40.71,91,208,48,3.60,74.02,0
Raw,9/12/2014 16:37,42.03,40.1,90,219,53,3.75,72.91,0
Raw,9/12/2014 16:38,40,43.82,87,201,52,3.33,79.67,0
Raw,9/12/2014 16:39,41.13,42.11,80,181,50,2.76,76.56,0
Raw,9/12/2014 16:40,40.43,42.5,86,217,46,3.55,77.27,0
Raw,9/12/2014 16:41,40.27,43.3,99,188,45,3.54,78.73,0
Raw,9/12/2014 16:42,41.83,41.18,80,202,50,3.08,74.87,0
Raw,9/12/2014 16:43,43.24,41.24,89,206,45,3.49,74.98,0
Raw,9/12/2014 16:44,41.43,43.75,96,188,50,3.44,79.55,0
Raw,9/12/2014 16:45,42.29,41.22,85,182,50,2.95,74.95,0
Raw,9/12/2014 16:46,41.02,41.75,89,205,49,3.47,75.91,0
Raw,9/12/2014 16:47,42.15,42.22,85,199,45,3.22,76.76,0
Raw,9/12/2014 16:48,43.82,41.43,94,185,55,3.31,75.33,0
Raw,9/12/2014 16:49,41.46,43.22,82,186,45,2.90,78.58,0
Raw,9/12/2014 16:50,41.42,43.15,82,203,47,3.17,78.45,0
Raw,9/12/2014 16:51,42.86,42.18,97,198,54,3.66,76.69,0
Raw,9/12/2014 16:52,40.13,40.77,100,202,45,3.85,74.13,0
Raw,9/12/2014 16:53,42.24,40.62,98,203,50,3.79,73.85,0
Raw,9/12/2014 16:54,41.22,42.13,84,187,46,2.99,76.60,0
Raw,9/12/2014 16:55,43.16,41.33,84,182,53,2.91,75.15,0
Raw,9/12/2014 16:56,40.75,41.12,88,182,52,3.05,74.76,0
Raw,9/12/2014 16:57,43.32,41.9,98,218,48,4.07,76.18,0
Raw,9/12/2014 16:58,43.3,43.23,82,200,45,3.12,78.60,0
Raw,9/12/2014 16:59,40.12,42.51,94,201,48,3.60,77.29,0
Raw,9/12/2014 17:00,40.57,40.66,91,205,53,3.55,73.93,0
Raw,9/12/2014 17:01,40.17,43.95,90,195,47,3.34,79.91,0
Raw,9/12/2014 17:02,42.95,41.16,83,186,47,2.94,74.84,0
Raw,9/12/2014 17:03,41.04,42.53,93,207,52,3.67,77.33,0
Raw,9/12/2014 17:04,41.97,42.87,90,215,54,3.68,77.95,0
Raw,9/12/2014 17:05,40.21,40.82,96,201,54,3.67,74.22,0
Raw,9/12/2014 17:06,42.81,40.47,98,194,46,3.62,73.58,0
Raw,9/12/2014 17:07,43.13,41.68,89,201,55,3.41,75.78,0
Raw,9/12/2014 17:08,42.31,42.31,94,200,53,3.58,76.93,0
Raw,9/12/2014 17:09,40.45,42.35,95,187,47,3.38,77.00,0
Raw,9/12/2014 17:10,41.48,41.72,91,203,53,3.52,75.85,0
Raw,9/12/2014 17:11,41.2,40.8,86,215,46,3.52,74.18,0
Raw,9/12/2014 17:12,42.65,43.54,94,187,52,3.35,79.16,0
Raw,9/12/2014 17:13,42.52,41.52,96,182,45,3.33,75.49,0
Raw,9/12/2014 17:14,41.74,40.17,97,216,48,3.99,73.04,0
Raw,9/12/2014 17:15,41.75,42.85,86,206,54,3.37,77.91,0
Raw,9/12/2014 17:16,40.11,41.32,94,201,54,3.60,75.13,0
Raw,9/12/2014 17:17,43.93,42.33,80,190,53,2.89,76.96,0
Raw,9/12/2014 17:18,41.5,43.9,93,203,47,3.59,79.82,0
Raw,9/12/2014 17:19,43.04,42.26,98,192,48,3.58,76.84,0
Raw,9/12/2014 17:20,40.8,41.65,86,199,45,3.26,75.73,0
Raw,9/12/2014 17:21,41.22,43.48,83,183,51,2.89,79.05,0
Raw,9/12/2014 17:22,40.12,42.15,97,189,47,3.49,76.64,0
Raw,9/12/2014 17:23,40.88,43.9,100,195,54,3.71,79.82,0
Raw,9/12/2014 17:24,40.54,43.41,94,209,45,3.74,78.93,0
Raw,9/12/2014 17:25,40.28,41.8,100,199,47,3.79,76.00,0
Raw,9/12/2014 17:26,40.11,42.26,81,183,54,2.82,76.84,0
Raw,9/12/2014 17:27,43.11,42.16,89,219,45,3.71,76.65,0
Raw,9/12/2014 17:28,42.1,43.82,93,203,53,3.59,79.67,0
Raw,9/12/2014 17:29,42.35,40.33,90,213,55,3.65,73.33,0
Raw,9/12/2014 17:30,41.53,40.93,95,216,55,3.91,74.42,0
Raw,9/12/2014 17:31,43.55,40.45,97,217,46,4.01,73.55,0
Raw,9/12/2014 17:32,42.54,43.23,95,185,47,3.35,78.60,0
Raw,9/12/2014 17:33,40.06,42.67,97,201,48,3.71,77.58,0
Raw,9/12/2014 17:34,41.49,41.89,95,194,49,3.51,76.16,0
Raw,9/12/2014 17:35,41.38,42.93,89,186,55,3.15,78.05,0
Raw,9/12/2014 17:36,43.86,40.24,82,216,53,3.37,73.16,0
Raw,9/12/2014 17:37,40.84,41.56,91,192,54,3.33,75.56,0
Raw,9/12/2014 17:38,42.04,41.07,91,209,53,3.62,74.67,0
Raw,9/12/2014 17:39,41.49,42.38,93,211,51,3.74,77.05,0
Raw,9/12/2014 17:40,42.57,40.72,88,186,48,3.12,74.04,0
Raw,9/12/2014 17:41,42.97,41.48,84,186,51,2.97,75.42,0
Raw,9/12/2014 17:42,41.91,40.23,95,184,51,3.33,73.15,0
Raw,9/12/2014 17:43,40.78,43.76,86,199,55,3.26,79.56,0
Raw,9/12/2014 17:44,40.26,40.44,90,197,46,3.38,73.53,0
Raw,9/12/2014 17:45,43.08,41.89,93,182,45,3.22,76.16,0
Raw,9/12/2014 17:46,43.5,41.69,84,210,54,3.36,75.80,0
Raw,9/12/2014 17:47,41.05,40.99,93,195,50,3.45,74.53,0
Raw,9/12/2014 17:48,41.24,41.92,85,188,51,3.04,76.22,0
Raw,9/12/2014 17:49,41.41,42.13,93,220,47,3.90,76.60,0
Raw,9/12/2014 17:50,42.07,42.75,101,222,55,4.27,76.49,0
Raw,9/12/2014 17:51,43.05,42.83,97,237,53,4.38,78.27,0
Raw,9/12/2014 17:52,43.61,44.08,98,231,55,4.31,79.29,0
Raw,9/12/2014 17:53,43.8,43.09,100,239,53,4.55,79.64,0
Raw,9/12/2014 17:54,42.37,44.59,98,227,54,4.24,77.04,0
Raw,9/12/2014 17:55,42.96,42.87,100,237,52,4.51,78.11,0
Raw,9/12/2014 17:56,44.16,43.05,100,235,53,4.47,80.29,0
Raw,9/12/2014 17:57,42.81,43.94,95,239,52,4.32,77.84,0
Raw,9/12/2014 17:58,43.93,44.46,101,231,54,4.44,79.87,0
Raw,9/12/2014 17:59,42.91,44.67,104,224,53,4.44,78.02,0
Raw,9/12/2014 18:00,42.53,43.67,99,227,54,4.28,77.33,0
Raw,9/12/2014 18:01,43.47,42.74,102,236,53,4.58,79.04,0
Raw,9/12/2014 18:02,44.34,42.63,101,225,53,4.33,80.62,0
